,City,Cloudiness,Country,Date,Humidity,Lat,Lng,Max Temp,Wind Speed
0,Mataura,56,NZ,2018-11-14 23:54:36,42,-46.19,168.86,20.04,8.07
1,Kungurtug,0,RU,2018-11-14 23:54:37,50,50.6,97.53,-29.74,1.07
2,Upernavik,12,GL,2018-11-14 23:54:37,100,72.79,-56.15,-9.24,10.07
3,Chara,75,GR,2018-11-14 22:50:00,87,39.42,22.43,12.0,2.1
4,Tuktoyaktuk,90,CA,2018-11-14 23:00:00,76,69.44,-133.03,-21.0,4.1
5,Poum,56,MK,2018-11-14 23:54:38,100,41.28,20.71,0.69,0.77
6,Lorengau,36,PG,2018-11-14 23:54:39,95,-2.02,147.27,29.89,4.47
7,Rikitea,12,PF,2018-11-14 23:54:39,100,-23.12,-134.97,23.54,2.67
8,Dire Dawa,24,ET,2018-11-14 23:54:40,91,9.59,41.86,14.99,1.72
9,Udachnyy,64,RU,2018-11-14 23:54:40,53,66.42,112.4,-20.82,2.87
10,Busselton,0,AU,2018-11-14 23:54:40,97,-33.64,115.35,18.11,7.97
11,Hilo,40,US,2018-11-14 22:56:00,62,19.71,-155.08,28.9,4.6
12,Cidreira,0,BR,2018-11-14 23:54:41,77,-30.17,-50.22,20.81,6.92
13,Talnakh,56,RU,2018-11-14 23:54:41,64,69.49,88.39,-22.57,2.07
14,Lang Suan,40,TH,2018-11-14 23:00:00,94,9.95,99.07,25.0,1.27
15,Hithadhoo,0,MV,2018-11-14 23:54:42,100,-0.6,73.08,28.36,7.17
16,Keffi,0,NG,2018-11-14 23:00:00,73,8.85,7.88,23.0,2.6
17,Butaritari,76,KI,2018-11-14 23:54:42,100,3.07,172.79,28.81,3.67
18,Buraydah,40,SA,2018-11-14 23:00:00,100,26.33,43.97,17.0,2.1
19,Airai,0,TL,2018-11-14 23:54:43,70,-8.93,125.41,26.29,1.02
20,New Norfolk,75,AU,2018-11-14 23:00:00,66,-42.78,147.06,12.0,5.7
21,Kavaratti,0,IN,2018-11-14 23:54:44,96,10.57,72.64,29.94,4.27
22,Tiznit,36,MA,2018-11-14 23:54:45,94,29.7,-9.73,13.61,1.17
23,Jamestown,0,AU,2018-11-14 23:54:45,60,-33.21,138.6,17.79,2.42
24,Bredasdorp,48,ZA,2018-11-14 23:00:00,93,-34.53,20.04,17.0,0.5
25,Jasper,92,US,2018-11-14 23:35:00,100,33.83,-87.28,4.4,1.42
26,Lantawan,90,PH,2018-11-14 23:00:00,83,10.62,123.98,27.0,3.82
27,Kaeo,56,NZ,2018-11-14 23:54:46,63,-35.1,173.78,18.86,6.17
28,Narsaq,88,GL,2018-11-14 22:50:00,41,60.91,-46.05,4.0,4.6
29,Chokurdakh,44,RU,2018-11-14 23:54:47,78,70.62,147.9,-18.04,3.77
30,Nanortalik,0,GL,2018-11-14 23:54:48,93,60.14,-45.24,1.56,12.22
31,Punta Arenas,40,CL,2018-11-14 23:00:00,65,-53.16,-70.91,7.0,6.2
32,Berdigestyakh,64,RU,2018-11-14 23:54:49,64,62.1,126.7,-22.49,1.97
33,Batie,20,FR,2018-11-14 23:30:00,87,45.06,5.82,10.0,5.1
34,Pierre,1,US,2018-11-14 22:53:00,41,44.37,-100.35,12.8,2.1
35,Yellowknife,90,CA,2018-11-14 23:00:00,77,62.45,-114.38,-15.0,5.7
36,Carnarvon,0,ZA,2018-11-14 23:54:50,25,-30.97,22.13,15.06,2.57
37,Qaanaaq,48,GL,2018-11-14 23:54:50,100,77.48,-69.36,-21.09,1.87
38,Kodiak,1,US,2018-11-14 22:53:00,45,39.95,-94.76,1.7,3.1
39,Champerico,75,MX,2018-11-14 22:47:00,68,16.38,-93.6,19.0,7.7
40,Arraial do Cabo,24,BR,2018-11-14 23:54:52,82,-22.97,-42.02,25.79,9.77
41,Lubao,75,PH,2018-11-14 23:00:00,78,14.94,120.6,27.0,1.0
42,Hermanus,0,ZA,2018-11-14 23:54:53,99,-34.42,19.24,12.29,1.37
43,Bosaso,8,SO,2018-11-14 23:54:53,100,11.28,49.18,25.56,2.12
44,Port Hardy,90,CA,2018-11-14 23:00:00,87,50.7,-127.42,11.0,1.5
45,Khatanga,32,RU,2018-11-14 23:54:53,73,71.98,102.47,-19.29,6.52
46,Atuona,0,PF,2018-11-14 23:54:54,100,-9.8,-139.03,27.31,7.37
47,La Rioja,0,AR,2018-11-14 23:51:22,44,-29.41,-66.86,20.31,1.62
48,Xining,88,CN,2018-11-14 23:54:54,88,36.62,101.77,-7.74,1.47
49,Srednekolymsk,8,RU,2018-11-14 23:54:55,54,67.46,153.71,-28.04,1.07
50,Valparaiso,1,US,2018-11-14 23:35:00,79,41.47,-87.06,0.0,2.1
51,Chuy,0,UY,2018-11-14 23:54:55,76,-33.69,-53.46,18.99,8.27
52,Griffith,0,AU,2018-11-14 23:54:56,88,-34.29,146.06,20.04,4.72
53,Souillac,90,FR,2018-11-14 23:30:00,93,45.6,-0.6,12.0,3.6
54,Castro,32,CL,2018-11-14 23:54:56,84,-42.48,-73.76,8.11,4.42
55,Port Alfred,12,ZA,2018-11-14 23:54:57,99,-33.59,26.89,16.24,2.87
56,Longyearbyen,20,NO,2018-11-14 22:50:00,63,78.22,15.63,-3.0,3.1
57,Avarua,75,CK,2018-11-14 23:00:00,78,-21.21,-159.78,27.0,5.1
58,Lasa,0,CY,2018-11-14 23:30:00,66,34.92,32.53,15.0,4.6
59,Pokhara,0,NP,2018-11-14 23:54:58,78,28.21,83.99,2.79,0.87
60,Meulaboh,100,ID,2018-11-14 23:54:59,100,4.14,96.13,25.44,2.22
61,Berlevag,24,NO,2018-11-14 23:54:59,100,70.86,29.09,-1.97,3.67
62,Igarka,36,RU,2018-11-14 23:54:59,56,67.47,86.57,-20.87,6.02
63,Tiksi,8,RU,2018-11-14 23:55:00,55,71.64,128.87,-20.82,6.57
64,Ushuaia,75,AR,2018-11-14 23:00:00,75,-54.81,-68.31,5.0,9.8
65,Vaini,0,IN,2018-11-14 23:55:01,66,15.34,74.49,15.79,2.22
66,Beni Suef,24,EG,2018-11-14 23:55:02,94,29.07,31.1,11.69,2.12
67,Dubai,0,AE,2018-11-14 23:00:00,73,25.27,55.3,25.0,2.6
68,Saint-Joseph,0,FR,2018-11-14 23:30:00,93,43.56,6.97,14.0,2.1
69,Bilibino,0,RU,2018-11-14 23:55:03,45,68.06,166.44,-33.94,1.12
70,Ponta do Sol,20,BR,2018-11-14 23:55:03,76,-20.63,-46.0,22.79,1.37
71,Port Elizabeth,1,US,2018-11-14 22:56:00,52,39.31,-74.98,3.9,2.1
72,Kurilsk,80,RU,2018-11-14 23:55:03,98,45.23,147.88,7.01,8.62
73,Kapaa,40,US,2018-11-14 22:56:00,64,22.08,-159.32,28.3,5.1
74,Kidal,32,ML,2018-11-14 23:55:04,34,18.44,1.41,18.14,1.97
75,Misratah,8,LY,2018-11-14 23:52:39,100,32.38,15.09,15.56,1.07
76,East London,80,ZA,2018-11-14 23:50:33,100,-33.02,27.91,20.01,3.82
77,Havre-Saint-Pierre,75,CA,2018-11-14 23:30:00,62,50.23,-63.6,-6.0,7.7
78,Malpur,0,IN,2018-11-14 23:55:05,76,23.32,73.56,17.04,1.17
79,Leh,80,IN,2018-11-14 23:55:06,84,34.16,77.58,-14.77,0.87
80,Homer,1,US,2018-11-14 22:53:00,79,59.64,-151.54,4.4,1.5
81,Montrose,40,AU,2018-11-14 23:00:00,59,-37.81,145.34,16.0,6.7
82,Hambantota,8,LK,2018-11-14 23:55:07,100,6.12,81.12,26.99,4.77
83,San Juan Nepomuceno,0,PY,2018-11-14 23:55:07,70,-26.11,-55.94,21.31,1.82
84,Russell,0,AR,2018-11-14 23:00:00,14,-33.01,-68.8,26.0,4.6
85,Pevek,0,RU,2018-11-14 23:55:08,93,69.7,170.27,-14.77,4.12
86,Yelizovo,40,RU,2018-11-14 23:00:00,64,53.19,158.38,1.0,5.0
87,Arlit,0,NE,2018-11-14 23:55:09,31,18.74,7.39,18.94,4.87
88,Kerema,88,PG,2018-11-14 23:55:09,80,-7.96,145.78,26.19,1.17
89,Saint-Philippe,1,CA,2018-11-14 23:15:00,52,45.36,-73.48,-8.0,4.6
90,Green River,1,US,2018-11-14 22:54:00,26,41.53,-109.47,10.0,8.2
91,Nantucket,1,US,2018-11-14 23:35:00,30,41.28,-70.1,1.1,3.6
92,Hasaki,20,JP,2018-11-14 23:00:00,81,35.73,140.83,9.0,3.1
93,Santander Jimenez,0,MX,2018-11-14 23:55:11,45,24.22,-98.47,9.26,1.97
94,Richards Bay,8,ZA,2018-11-14 23:55:11,75,-28.77,32.06,21.74,5.97
95,Luderitz,0,NA,2018-11-14 23:55:12,72,-26.65,15.16,14.66,5.57
96,Namibe,0,AO,2018-11-14 23:55:12,100,-15.19,12.15,24.04,7.57
97,Dalby,8,AU,2018-11-14 23:00:00,50,-27.18,151.26,25.0,3.1
98,Kanniyakumari,44,IN,2018-11-14 23:51:37,100,8.08,77.57,28.16,1.62
99,Alihe,0,CN,2018-11-14 23:55:14,52,50.57,123.73,-14.07,2.57
100,Westport,80,IE,2018-11-14 23:55:15,96,53.8,-9.52,11.79,5.12
101,Yanam,92,IN,2018-11-14 23:55:15,69,16.73,82.22,27.31,6.72
102,Saldanha,8,PT,2018-11-14 23:55:15,92,41.42,-6.55,3.44,1.17
103,Puerto Ayora,20,EC,2018-11-14 23:00:00,65,-0.74,-90.35,27.0,2.6
104,Sao Joao da Barra,0,BR,2018-11-14 23:55:16,96,-21.64,-41.05,25.41,11.77
105,Naze,44,NG,2018-11-14 23:55:17,89,5.43,7.07,24.06,2.77
106,Provideniya,75,RU,2018-11-14 23:00:00,63,64.42,-173.23,-2.0,7.0
107,Rome,0,IT,2018-11-14 22:55:00,81,41.89,12.48,14.0,1.0
108,Sao Filipe,0,CV,2018-11-14 23:54:17,100,14.9,-24.5,23.76,6.27
109,Soanierana Ivongo,92,MG,2018-11-14 23:55:19,100,-16.92,49.59,21.86,4.37
110,Enid,1,US,2018-11-14 23:35:00,51,36.4,-97.88,5.0,2.52
111,Saskylakh,64,RU,2018-11-14 23:55:19,70,71.97,114.09,-20.97,7.42
112,Victoria,90,BN,2018-11-14 23:00:00,94,5.28,115.24,25.0,1.5
113,Cape Town,0,ZA,2018-11-14 23:00:00,93,-33.93,18.42,17.0,2.6
114,Ribeira Grande,80,PT,2018-11-14 23:55:20,98,38.52,-28.7,18.39,6.22
115,Barrow,0,AR,2018-11-14 23:55:21,90,-38.31,-60.23,12.64,1.37
116,Zhangye,48,CN,2018-11-14 23:55:21,78,38.94,100.46,-7.59,1.32
117,Barra do Garcas,64,BR,2018-11-14 23:55:21,97,-15.89,-52.26,22.49,2.67
118,Benguela,88,AO,2018-11-14 23:55:22,100,-12.58,13.4,23.89,0.17
119,Ambulu,80,ID,2018-11-14 23:55:22,100,-8.35,113.61,24.64,1.67
120,Norman Wells,75,CA,2018-11-14 23:00:00,77,65.28,-126.83,-18.0,7.2
121,Bluff,0,AU,2018-11-14 23:55:23,49,-23.58,149.07,28.79,3.22
122,Escarcega,100,MX,2018-11-14 23:55:23,99,18.61,-90.75,20.16,2.87
123,Marsala,20,IT,2018-11-14 23:20:00,87,37.8,12.44,15.0,2.1
124,Muriti,8,TZ,2018-11-14 23:55:24,100,-1.99,32.93,23.86,2.42
125,Aksarka,0,RU,2018-11-14 23:55:24,77,66.56,67.8,-14.87,3.92
126,Lebu,0,ET,2018-11-14 23:55:24,78,8.96,38.73,6.51,1.47
127,Dikson,56,RU,2018-11-14 23:55:25,98,73.51,80.55,-12.64,15.17
128,Axim,32,GH,2018-11-14 23:55:25,100,4.87,-2.24,27.76,4.02
129,Pidvynohradiv,0,UA,2018-11-14 23:30:00,100,48.14,22.97,2.0,0.5
130,Darovskoy,92,RU,2018-11-14 23:55:26,82,58.77,47.96,-4.37,3.67
131,Ishigaki,20,JP,2018-11-14 23:00:00,78,24.34,124.16,22.0,1.5
132,Bonavista,88,CA,2018-11-14 23:55:27,100,48.65,-53.11,2.01,24.12
133,Port Lincoln,8,AU,2018-11-14 23:55:27,89,-34.72,135.86,15.86,3.57
134,Kamenka,0,RU,2018-11-14 23:55:28,77,53.19,44.05,-12.47,3.47
135,Moussoro,0,TD,2018-11-14 23:55:28,24,13.64,16.49,20.99,4.22
136,Zhezkazgan,0,KZ,2018-11-14 23:55:29,54,47.8,67.71,-18.09,1.07
137,Samarai,92,PG,2018-11-14 23:54:24,100,-10.62,150.67,25.64,3.37
138,Georgiyevka,0,RU,2018-11-14 23:55:29,75,52.25,40.45,-9.14,4.37
139,Marawi,20,PH,2018-11-14 23:55:30,100,8.0,124.29,23.01,1.22
140,Araouane,56,ML,2018-11-14 23:55:30,37,18.9,-3.53,22.29,4.12
141,Mehamn,44,NO,2018-11-14 23:55:30,82,71.03,27.85,-4.12,2.57
142,Komsomolskiy,0,RU,2018-11-14 23:55:31,64,67.55,63.78,-17.59,1.42
143,Rivera,0,UY,2018-11-14 23:55:31,73,-30.9,-55.54,17.19,4.57
144,Tuatapere,92,NZ,2018-11-14 23:55:32,69,-46.13,167.69,15.99,7.17
145,Tasiilaq,92,GL,2018-11-14 22:50:00,100,65.61,-37.64,0.0,3.1
146,Puerto Narino,40,CO,2018-11-14 23:00:00,100,-3.77,-70.38,26.0,1.32
147,Bethel,90,US,2018-11-14 22:53:00,88,60.79,-161.76,-5.6,7.2
148,Porto Novo,75,BR,2018-11-14 23:00:00,58,-23.68,-45.44,28.0,2.6
149,Coihaique,75,CL,2018-11-14 23:00:00,86,-45.58,-72.07,5.0,2.1
150,Miri,8,NG,2018-11-14 23:55:35,58,10.31,9.75,17.01,1.52
151,Kununurra,0,AU,2018-11-14 23:00:00,74,-15.77,128.74,28.0,2.6
152,Shenjiamen,68,CN,2018-11-14 23:55:36,93,29.96,122.3,18.54,2.12
153,Rocha,0,UY,2018-11-14 23:51:07,75,-34.48,-54.34,17.51,6.52
154,Iqaluit,75,CA,2018-11-14 23:00:00,77,63.75,-68.52,-18.0,4.1
155,Mount Gambier,88,AU,2018-11-14 23:55:36,78,-37.83,140.78,13.29,1.72
156,Codrington,8,AU,2018-11-14 23:55:37,77,-28.95,153.24,24.91,1.52
157,Hobart,75,AU,2018-11-14 23:00:00,66,-42.88,147.33,12.0,5.7
158,Sept-Iles,90,CA,2018-11-14 23:00:00,57,50.2,-66.38,-8.0,9.8
159,Thinadhoo,36,MV,2018-11-14 23:55:38,100,0.53,72.93,27.74,6.02
160,Georgetown,92,GY,2018-11-14 23:55:39,79,6.8,-58.16,27.29,4.32
161,Durango,1,US,2018-11-14 22:53:00,34,37.28,-107.88,8.3,2.6
162,Kargasok,92,RU,2018-11-14 23:55:39,75,59.06,80.87,-5.27,3.92
163,Kailua,1,US,2018-11-14 22:57:00,74,21.39,-157.74,26.7,3.1
164,Ancud,20,CL,2018-11-14 23:55:40,77,-41.87,-73.83,8.91,4.32
165,Jeremoabo,0,BR,2018-11-14 23:55:40,56,-10.08,-38.34,25.69,6.32
166,Vostok,12,RU,2018-11-14 23:55:40,83,46.45,135.83,-6.57,1.22
167,Cabo San Lucas,5,MX,2018-11-14 22:42:00,47,22.89,-109.91,28.0,5.1
168,Cherskiy,8,RU,2018-11-14 23:50:49,79,68.75,161.3,-24.59,1.12
169,Victor Harbor,40,AU,2018-11-14 23:00:00,42,-35.55,138.62,17.0,4.1
170,Ostrovnoy,64,RU,2018-11-14 23:55:41,94,68.05,39.51,-3.27,4.37
171,Jaicos,64,BR,2018-11-14 23:55:42,23,-7.36,-41.14,33.29,4.22
172,Touros,88,BR,2018-11-14 23:55:42,85,-5.2,-35.46,26.14,6.02
173,Husavik,76,CA,2018-11-14 23:55:42,86,50.56,-96.99,-2.27,5.32
174,Ahipara,36,NZ,2018-11-14 23:55:43,67,-35.17,173.16,20.16,5.32
175,Wajir,80,KE,2018-11-14 23:55:43,99,1.75,40.07,21.99,1.17
176,Cayenne,75,GF,2018-11-14 23:30:00,88,4.94,-52.33,27.0,2.6
177,Peterhead,40,AU,2018-11-14 23:00:00,42,-34.83,138.5,17.0,4.1
178,Albany,40,US,2018-11-14 22:54:00,40,42.65,-73.75,-2.2,4.6
179,Kyabe,12,TD,2018-11-14 23:55:44,74,9.45,18.94,17.69,1.22
180,Kinango,20,KE,2018-11-14 23:00:00,94,-4.13,39.32,23.0,1.5
181,Manjacaze,0,MZ,2018-11-14 23:55:45,87,-24.71,33.88,19.49,3.47
182,Acapulco,75,MX,2018-11-14 22:48:00,66,16.86,-99.88,30.0,1.77
183,Beira,0,ES,2018-11-14 23:30:00,81,43.2,-8.36,12.0,3.6
184,Poronaysk,0,RU,2018-11-14 23:55:46,84,49.22,143.1,3.26,4.92
185,Fukagawa,75,JP,2018-11-14 23:00:00,80,43.72,142.05,2.0,1.5
186,Lakes Entrance,76,AU,2018-11-14 23:55:48,98,-37.88,147.99,13.76,4.77
187,Mahibadhoo,36,MV,2018-11-14 23:55:48,100,3.78,72.97,28.39,3.92
188,Caravelas,8,BR,2018-11-14 23:55:49,99,-17.73,-39.27,26.14,6.47
189,Gidam,0,IN,2018-11-14 23:55:49,87,18.98,81.4,13.54,1.32
190,Dunedin,44,NZ,2018-11-14 23:51:51,63,-45.87,170.5,19.26,1.42
191,Mar del Plata,0,AR,2018-11-14 23:55:49,37,-46.43,-67.52,14.56,12.97
192,Klaksvik,92,FO,2018-11-14 23:20:00,93,62.23,-6.59,11.0,8.2
193,Bintulu,90,MY,2018-11-14 23:00:00,100,3.17,113.03,23.0,2.1
194,Paamiut,92,GL,2018-11-14 23:55:50,100,61.99,-49.67,1.19,1.52
195,Auki,36,NG,2018-11-14 23:55:51,51,12.18,6.51,18.51,2.07
196,Ust-Maya,80,RU,2018-11-14 23:55:51,80,60.42,134.54,-12.14,1.97
197,Babayurt,92,RU,2018-11-14 23:55:51,75,43.6,46.78,9.31,9.22
198,Along,64,IN,2018-11-14 23:55:52,83,28.17,94.8,12.24,0.77
199,Hinesville,90,US,2018-11-14 23:39:00,87,31.85,-81.6,16.0,3.57
200,Guerrero Negro,0,MX,2018-11-14 23:55:52,35,27.97,-114.04,23.89,3.37
201,Ambikapur,8,IN,2018-11-14 23:55:53,81,23.12,83.2,12.61,1.32
202,Segou,100,SN,2018-11-14 23:55:53,67,12.41,-12.29,27.04,2.77
203,Fairbanks,90,US,2018-11-14 23:33:00,92,64.84,-147.72,-7.4,3.1
204,Coquimbo,0,CL,2018-11-14 23:00:00,77,-29.95,-71.34,17.0,4.1
205,Cayambe,44,EC,2018-11-14 23:55:54,61,0.04,-78.14,13.26,0.47
206,Kahului,40,US,2018-11-14 22:56:00,61,20.89,-156.47,29.4,4.6
207,Basco,1,US,2018-11-14 23:35:00,63,40.33,-91.2,0.6,1.5
208,Shakiso,88,ET,2018-11-14 23:55:55,100,5.77,38.9,14.64,1.07
209,Tofield,90,CA,2018-11-14 23:00:00,60,53.37,-112.67,5.0,1.5
210,Thompson,90,CA,2018-11-14 23:00:00,85,55.74,-97.86,-10.0,2.1
211,Launceston,40,AU,2018-11-14 23:00:00,50,-41.43,147.14,14.0,5.1
212,Gharo,0,PK,2018-11-14 22:55:00,30,24.74,67.58,22.0,3.1
213,Katsuura,20,JP,2018-11-14 23:00:00,87,33.93,134.5,9.0,2.6
214,Inuvik,90,CA,2018-11-14 23:00:00,76,68.36,-133.71,-22.0,2.1
215,Petropavlovsk-Kamchatskiy,40,RU,2018-11-14 23:00:00,64,53.05,158.65,1.0,5.0
216,Kieta,32,PG,2018-11-14 23:55:58,93,-6.22,155.63,28.69,1.77
217,Sidi Ali,92,DZ,2018-11-14 23:55:58,100,36.1,0.42,13.89,1.52
218,Esperance,40,TT,2018-11-14 23:00:00,94,10.24,-61.45,25.0,2.6
219,Labuhan,92,ID,2018-11-14 23:55:59,97,-2.54,115.51,23.44,0.77
220,Talara,0,PE,2018-11-14 23:55:59,63,-4.58,-81.27,23.06,4.22
221,Camacha,20,PT,2018-11-14 23:30:00,72,33.08,-16.33,18.0,3.6
222,Xuanzhou,44,CN,2018-11-14 23:56:00,81,30.95,118.78,14.39,6.02
223,Bose,90,IT,2018-11-14 23:20:00,100,45.46,8.01,12.0,1.5
224,Reconquista,0,AR,2018-11-14 23:56:00,71,-29.14,-59.64,18.04,3.22
225,Trincomalee,8,LK,2018-11-14 23:56:01,89,8.58,81.23,20.99,2.27
226,Ilhabela,32,BR,2018-11-14 23:55:45,83,-23.78,-45.36,25.44,6.32
227,Alofi,90,NU,2018-11-14 23:00:00,78,-19.06,-169.92,24.0,5.7
228,Lavrentiya,0,RU,2018-11-14 23:56:02,100,65.58,-170.99,-0.14,8.37
229,Brest,44,BY,2018-11-14 23:57:15,93,52.09,23.69,6.16,4.82
230,Pangnirtung,90,CA,2018-11-14 23:00:00,55,66.15,-65.72,-12.0,4.6
231,Merrill,1,US,2018-11-14 22:53:00,12,42.03,-121.6,14.4,1.12
232,Saint George,75,GR,2018-11-14 22:50:00,87,39.45,22.34,12.0,2.1
233,Kruisfontein,68,ZA,2018-11-14 23:56:04,88,-34.0,24.73,14.64,1.92
234,Murgab,8,TM,2018-11-14 23:00:00,74,37.5,61.97,-2.0,1.72
235,Sabang,64,PH,2018-11-14 23:56:04,100,13.72,123.58,24.31,2.22
236,Huaicheng,92,CN,2018-11-14 23:56:05,99,23.91,112.19,19.29,2.12
237,Matay,0,EG,2018-11-14 23:56:05,96,28.42,30.79,12.06,3.07
238,Aswan,0,EG,2018-11-14 23:00:00,42,24.09,32.9,18.0,3.6
239,Kodinsk,80,RU,2018-11-14 23:56:06,70,58.6,99.18,-7.62,4.17
240,Bambous Virieux,75,MU,2018-11-14 23:00:00,88,-20.34,57.76,24.0,4.1
241,Yamada,20,JP,2018-11-14 23:00:00,76,36.58,137.08,10.0,2.6
242,Parrita,75,CR,2018-11-14 23:00:00,77,9.52,-84.33,22.0,2.6
243,Skuratovskiy,64,RU,2018-11-14 23:56:08,75,54.1,37.62,-5.99,3.97
244,Santa Cruz del Norte,40,CU,2018-11-14 22:55:00,74,23.15,-81.92,28.0,5.82
245,Biak,64,ID,2018-11-14 23:56:08,76,-0.91,122.88,29.44,1.07
246,Illapel,48,CL,2018-11-14 23:56:09,67,-31.63,-71.17,17.31,1.52
247,Susuman,64,RU,2018-11-14 23:56:09,72,62.78,148.15,-22.32,1.17
248,Severo-Kurilsk,92,RU,2018-11-14 23:56:10,100,50.68,156.12,4.54,14.72
249,Paranavai,0,BR,2018-11-14 23:00:00,94,-23.07,-52.47,22.0,3.1
250,Nouadhibou,20,MR,2018-11-14 23:00:00,77,20.93,-17.03,18.0,7.2
251,Saint Anthony,1,US,2018-11-14 22:56:00,29,43.97,-111.68,7.8,2.6
252,Ziro,88,IN,2018-11-14 23:56:11,100,27.54,93.82,9.51,0.17
253,Dubbo,0,AU,2018-11-14 23:00:00,50,-32.25,148.6,25.0,2.1
254,Xiongyue,92,CN,2018-11-14 23:56:12,92,40.18,122.12,4.49,4.17
255,Mana,40,RS,2018-11-14 23:30:00,87,43.52,20.24,7.0,1.5
256,Muhos,80,FI,2018-11-14 23:20:00,100,64.81,26.0,3.0,3.6
257,Lagoa,40,PT,2018-11-14 23:30:00,88,37.14,-8.45,17.0,6.2
258,Nikolskoye,90,RU,2018-11-14 23:00:00,93,59.7,30.79,5.0,1.02
259,Kloulklubed,75,PW,2018-11-14 22:50:00,78,7.04,134.26,28.0,2.6
260,Emba,0,CY,2018-11-14 23:30:00,66,34.81,32.42,15.0,4.6
261,Breves,88,BR,2018-11-14 23:56:14,67,-1.68,-50.48,30.11,4.32
262,Ciudad Bolivar,0,VE,2018-11-14 23:56:15,66,8.12,-63.55,28.79,5.72
263,Faya,0,SA,2018-11-14 23:00:00,54,18.39,42.45,13.0,1.77
264,Port Macquarie,44,AU,2018-11-14 23:00:00,61,-31.43,152.91,26.0,2.1
265,Nome,1,US,2018-11-14 23:35:00,53,30.04,-94.42,9.4,3.1
266,Mareeba,40,AU,2018-11-14 23:00:00,61,-16.99,145.42,28.0,4.1
267,Quballat,40,TN,2018-11-14 23:30:00,87,36.54,9.66,14.0,0.5
268,Taoudenni,44,ML,2018-11-14 23:56:17,50,22.68,-3.98,13.49,1.27
269,Baykit,88,RU,2018-11-14 23:56:17,80,61.68,96.39,-9.87,4.62
270,Tarauaca,36,BR,2018-11-14 23:56:17,92,-8.16,-70.77,25.39,1.12
271,Katangli,88,RU,2018-11-14 23:56:18,99,51.71,143.23,4.01,6.17
272,Humaita,0,AR,2018-11-14 23:00:00,49,-24.93,-65.37,21.0,2.1
273,Linxia,92,CN,2018-11-14 23:56:19,90,35.6,103.21,-5.52,1.62
274,Khilok,64,RU,2018-11-14 23:56:19,63,51.36,110.46,-13.77,4.02
275,Caucaia,40,BR,2018-11-14 23:00:00,78,-3.73,-38.66,27.0,6.2
276,Inyonga,64,TZ,2018-11-14 23:56:20,88,-6.72,32.06,18.66,2.17
277,Villa Carlos Paz,0,AR,2018-11-14 23:00:00,46,-31.42,-64.5,21.0,3.1
278,Kaitangata,44,NZ,2018-11-14 23:56:21,66,-46.28,169.85,19.14,1.42
279,Foumban,88,CM,2018-11-14 23:56:21,46,5.73,10.9,24.49,1.62
280,Burnie,0,AU,2018-11-14 23:56:21,100,-41.05,145.91,13.06,4.42
281,Prince Rupert,90,CA,2018-11-14 23:13:00,93,54.32,-130.32,9.0,3.1
282,Viedma,0,AR,2018-11-14 23:56:22,37,-40.81,-62.99,19.31,3.22
283,Riyadh,0,SA,2018-11-14 23:00:00,77,24.63,46.72,20.0,3.1
284,Tutoia,12,BR,2018-11-14 23:56:23,72,-2.76,-42.27,27.76,8.42
285,Alta Floresta,12,BR,2018-11-14 23:56:23,95,-9.87,-56.08,25.81,0.97
286,Mahebourg,75,MU,2018-11-14 23:00:00,88,-20.41,57.7,24.0,4.1
287,San Cristobal,75,EC,2018-11-14 23:00:00,72,-0.39,-78.55,15.0,1.5
288,Pacific Grove,1,US,2018-11-14 23:35:00,10,36.62,-121.92,22.2,6.2
289,Ilulissat,0,GL,2018-11-14 22:50:00,71,69.22,-51.1,-14.0,2.1
290,Dingle,44,PH,2018-11-14 23:56:25,98,11.0,122.67,24.69,4.92
291,Trelew,12,AR,2018-11-14 23:56:25,32,-43.25,-65.31,21.04,9.57
292,Fort Nelson,75,CA,2018-11-14 23:00:00,72,58.81,-122.69,-8.0,3.6
293,Mogadishu,24,SO,2018-11-14 23:52:26,100,2.04,45.34,27.19,2.77
294,Uch,0,FR,2018-11-14 23:30:00,93,45.32,-0.93,13.0,2.6
295,Sakaiminato,75,JP,2018-11-14 23:00:00,87,35.55,133.23,9.0,3.6
296,Nishihara,1,JP,2018-11-14 23:00:00,69,35.74,139.53,12.0,2.12
297,Zhigansk,32,RU,2018-11-14 23:56:27,59,66.77,123.37,-24.54,4.57
298,Vestmanna,92,FO,2018-11-14 23:20:00,93,62.16,-7.17,11.0,8.2
299,Stanilesti,90,RO,2018-11-14 23:30:00,100,46.62,28.17,1.0,0.5
300,Panjab,0,AF,2018-11-14 23:56:29,66,34.38,67.02,-16.22,0.97
301,Sitka,0,US,2018-11-14 23:56:29,65,37.17,-99.65,2.06,2.32
302,Abapo,92,BO,2018-11-14 23:56:29,94,-18.83,-63.47,17.49,1.17
303,Noumea,75,NC,2018-11-14 23:30:00,48,-22.28,166.46,29.0,4.6
304,Vila Franca do Campo,20,PT,2018-11-14 23:30:00,62,37.72,-25.43,14.0,4.1
305,Akdepe,0,TM,2018-11-14 23:00:00,44,42.05,59.39,-7.0,3.1
306,Murray,1,US,2018-11-14 23:53:00,41,40.67,-111.89,8.9,3.6
307,Agadez,20,NE,2018-11-14 23:56:32,32,16.97,7.99,17.24,3.27
308,Calama,0,CL,2018-11-14 23:00:00,9,-22.46,-68.93,21.0,9.3
309,Oussouye,0,SN,2018-11-14 23:00:00,83,12.49,-16.54,26.0,2.1
310,Grindavik,75,IS,2018-11-14 23:30:00,86,63.84,-22.43,4.0,4.1
311,Umm Lajj,32,SA,2018-11-14 23:56:33,100,25.02,37.27,18.19,2.22
312,Pahrump,1,US,2018-11-14 22:58:00,9,36.21,-115.98,19.4,6.2
313,Estelle,5,US,2018-11-14 23:50:00,36,32.87,-97.01,8.9,2.12
314,Rajsamand,0,IN,2018-11-14 23:56:34,65,25.06,73.89,14.04,2.32
315,Kantilo,20,IN,2018-11-14 23:00:00,94,20.35,85.18,20.0,1.22
316,Beringovskiy,0,RU,2018-11-14 23:56:35,100,63.05,179.32,-7.97,7.17
317,Demirci,0,TR,2018-11-14 23:56:35,73,39.05,28.66,-6.99,1.12
318,Puerto Baquerizo Moreno,75,EC,2018-11-14 23:00:00,83,-0.9,-89.6,24.0,7.2
319,Boyolangu,24,ID,2018-11-14 23:56:36,96,-8.09,111.9,24.31,2.22
320,Mporokoso,68,ZM,2018-11-14 23:56:36,71,-9.37,30.12,20.49,2.57
321,Flinders,90,AU,2018-11-14 23:30:00,93,-34.58,150.85,16.0,7.7
322,Sawakin,0,SD,2018-11-14 23:00:00,69,19.1,37.33,26.0,5.7
323,Mackenzie,90,CA,2018-11-14 23:18:00,86,55.34,-123.09,3.0,3.1
324,Santa Barbara,1,US,2018-11-14 23:35:00,16,34.42,-119.7,28.9,5.1
325,Ankang,92,CN,2018-11-14 23:56:39,99,32.73,108.99,7.04,1.02
326,Veraval,0,FR,2018-11-14 23:30:00,93,49.65,0.71,11.0,2.6
327,High Level,90,CA,2018-11-14 23:00:00,79,58.52,-117.13,-6.0,2.1
328,Ridgecrest,20,US,2018-11-14 22:56:00,6,35.62,-117.67,20.6,2.1
329,Kinablangan,56,PH,2018-11-14 23:56:40,100,7.69,126.55,26.76,1.12
330,Vestmannaeyjar,68,IS,2018-11-14 23:56:41,100,63.44,-20.27,2.81,5.47
331,Leningradskiy,0,RU,2018-11-14 23:56:41,100,69.38,178.42,-10.39,2.07
332,Beloha,0,MG,2018-11-14 23:56:41,74,-25.17,45.06,19.66,6.22
333,Dordrecht,0,NL,2018-11-14 23:35:00,100,51.8,4.68,6.0,1.0
334,Cabedelo,100,BR,2018-11-14 23:56:42,93,-6.97,-34.84,26.41,5.67
335,Barabash,0,RU,2018-11-14 23:00:00,92,43.19,131.5,-5.0,1.0
336,Valkeala,90,FI,2018-11-14 23:20:00,100,60.94,26.8,4.0,1.0
337,Gazanjyk,20,TM,2018-11-14 23:56:43,80,39.24,55.52,-2.77,3.97
338,Chifeng,92,CN,2018-11-14 23:56:44,79,42.27,118.96,-4.44,2.57
339,Nicoya,75,CR,2018-11-14 23:00:00,66,10.15,-85.45,29.0,7.7
340,Isangel,32,VU,2018-11-14 23:56:44,100,-19.55,169.27,24.44,6.82
341,Nhlangano,0,SZ,2018-11-14 23:56:45,92,-27.11,31.2,11.66,0.87
342,Mayo,75,CA,2018-11-14 23:00:00,61,63.59,-135.9,-11.0,4.6
343,Otane,56,NZ,2018-11-14 23:56:46,58,-39.89,176.62,21.39,1.87
344,Portland,90,US,2018-11-14 23:21:00,89,45.52,-122.67,11.1,1.12
345,Pisco,40,PE,2018-11-14 23:00:00,30,-13.71,-76.2,22.0,7.7
346,Sinnamary,92,GF,2018-11-14 23:56:46,100,5.38,-52.96,25.79,4.92
347,Kavieng,12,PG,2018-11-14 23:56:47,100,-2.57,150.8,29.89,2.42
348,Grenada,90,US,2018-11-14 23:22:00,81,33.77,-89.81,-0.6,3.42
349,Ardmore,90,US,2018-11-14 23:35:00,100,34.99,-86.85,4.4,1.5
350,Rabo de Peixe,20,PT,2018-11-14 23:30:00,62,37.8,-25.58,14.0,4.1
351,Bonthe,8,SL,2018-11-14 23:56:49,98,7.53,-12.5,25.39,1.57
352,Bathsheba,40,BB,2018-11-14 23:00:00,83,13.22,-59.52,27.0,10.8
353,Borba,48,PT,2018-11-14 23:56:50,91,38.81,-7.46,10.44,2.57
354,Carutapera,24,BR,2018-11-14 23:56:50,79,-1.2,-46.02,27.69,4.97
355,Pringsewu,36,ID,2018-11-14 23:56:51,86,-5.36,104.98,24.89,1.22
356,Hamilton,90,BM,2018-11-14 22:55:00,94,32.3,-64.78,23.0,4.6
357,Jesus de Otoro,90,HN,2018-11-14 22:58:00,90,14.48,-87.98,22.3,9.8
358,Chivay,36,PE,2018-11-14 23:56:52,29,-15.64,-71.6,6.19,1.87
359,Shimoda,20,JP,2018-11-14 23:00:00,54,34.7,138.93,14.0,8.7
360,Sidney,1,US,2018-11-14 23:35:00,36,47.72,-104.16,11.7,6.7
361,Cockburn Town,76,TC,2018-11-14 23:56:53,100,21.46,-71.14,26.79,10.77
362,Maragogi,88,BR,2018-11-14 23:56:53,91,-9.01,-35.22,24.94,3.62
363,Svetlaya,0,RU,2018-11-14 23:56:53,100,46.54,138.33,1.79,3.22
364,Feicheng,80,CN,2018-11-14 23:56:54,82,36.18,116.77,8.51,2.07
365,Lakatoro,80,VU,2018-11-14 23:56:54,87,-16.11,167.42,27.31,2.87
366,Chapais,90,CA,2018-11-14 23:10:00,77,49.78,-74.86,-14.0,5.7
367,Springville,1,US,2018-11-14 23:35:00,41,40.17,-111.61,7.2,3.6
368,Kannur,0,IN,2018-11-14 23:56:55,68,11.88,75.37,18.51,0.97
369,Daru,80,SL,2018-11-14 23:56:55,95,7.99,-10.85,22.31,0.97
370,Torbay,90,CA,2018-11-14 23:00:00,86,47.66,-52.73,-2.0,13.4
371,Encheng,56,CN,2018-11-14 23:56:56,96,22.74,107.09,20.76,1.97
372,Hinton,44,CA,2018-11-14 23:56:56,72,53.4,-117.57,2.14,0.92
373,Sampit,36,ID,2018-11-14 23:56:57,98,-2.54,112.95,25.56,2.37
374,Zyryanovsk,0,KZ,2018-11-14 23:56:57,66,49.74,84.27,-23.49,1.32
375,Yumen,68,CN,2018-11-14 23:56:57,75,40.29,97.04,-7.49,2.07
376,Polyarnyy,75,RU,2018-11-14 23:00:00,95,69.2,33.45,0.0,3.0
377,Big Rapids,1,US,2018-11-14 23:36:00,64,43.7,-85.48,-2.0,1.87
378,Broome,0,GB,2018-11-14 23:37:00,93,52.47,1.45,10.0,2.6
379,Yeppoon,40,AU,2018-11-14 23:00:00,54,-23.13,150.74,28.0,3.6
380,Lyubech,92,UA,2018-11-14 23:56:59,95,51.7,30.66,1.64,2.87
381,Coari,24,BR,2018-11-14 23:56:59,89,-4.09,-63.14,26.86,1.22
382,Hammerfest,0,NO,2018-11-14 23:20:00,100,70.66,23.68,5.0,8.2
383,Sobolevo,88,RU,2018-11-14 23:57:00,84,54.43,31.9,-1.27,3.52
384,Pampa,1,US,2018-11-14 23:51:00,55,35.54,-100.96,8.6,2.1
385,Iracoubo,92,GF,2018-11-14 23:57:01,92,5.48,-53.21,25.26,2.47
386,Springfield,90,US,2018-11-14 22:52:00,58,37.22,-93.29,-1.1,2.1
387,Okhotsk,92,RU,2018-11-14 23:57:02,100,59.36,143.24,-4.34,2.07
388,Somerset,90,US,2018-11-14 23:42:00,55,37.09,-84.6,1.0,3.1
389,Dawei,0,MM,2018-11-14 23:57:03,95,14.07,98.19,23.61,1.07
390,Bandeirantes,56,BR,2018-11-14 23:57:03,72,-23.11,-50.37,26.29,1.77
391,Neuquen,0,AR,2018-11-14 23:00:00,35,-38.95,-68.06,21.0,3.6
392,Tazovskiy,0,RU,2018-11-14 23:56:35,66,67.47,78.7,-17.89,5.62
393,Kauhajoki,90,FI,2018-11-14 23:20:00,93,62.43,22.18,5.0,2.6
394,Milkovo,32,BG,2018-11-14 23:30:00,87,41.53,24.68,10.0,2.1
395,Ayagoz,0,KZ,2018-11-14 23:57:05,28,47.96,80.43,-29.04,1.37
396,Boca do Acre,8,BR,2018-11-14 23:57:05,88,-8.76,-67.39,26.56,1.07
397,Deer Lake,90,CA,2018-11-14 23:00:00,86,49.18,-57.43,-2.0,7.7
398,Pitimbu,100,BR,2018-11-14 23:57:06,93,-7.47,-34.81,26.41,5.67
399,La Huaca,0,PE,2018-11-14 23:57:06,63,-4.91,-80.96,23.06,4.22
400,Mamallapuram,75,IN,2018-11-14 23:00:00,100,12.63,80.17,25.0,2.1
401,Nadvoitsy,92,RU,2018-11-14 23:57:07,96,63.89,34.27,1.49,1.17
402,Bam,12,IR,2018-11-14 23:57:07,75,29.11,58.36,4.24,1.17
403,Livramento,20,BR,2018-11-14 23:00:00,83,-3.03,-60.18,30.0,1.07
404,Chicama,0,PE,2018-11-14 23:00:00,82,-7.84,-79.15,20.0,4.1
405,Erdenet,0,MN,2018-11-14 23:57:09,51,49.03,104.04,-24.62,1.17
406,Rundu,0,NA,2018-11-14 23:57:09,35,-17.91,19.77,18.99,2.07
407,Robertsport,12,LR,2018-11-14 23:57:10,100,6.75,-11.37,27.91,4.22
408,Zyryanka,8,RU,2018-11-14 23:57:10,68,65.73,150.89,-26.12,1.17
409,Saint-Pierre,75,FR,2018-11-14 23:30:00,100,48.95,4.24,6.0,1.5
410,Namatanai,0,PG,2018-11-14 23:57:11,95,-3.66,152.44,29.91,3.87
411,Polunochnoye,92,RU,2018-11-14 23:57:12,79,60.87,60.43,-3.37,3.32
412,Kem,0,UG,2018-11-14 23:57:12,77,2.68,33.77,20.06,2.97
413,Fortuna,0,ES,2018-11-14 23:30:00,77,38.18,-1.13,18.0,4.1
414,Gusau,36,NG,2018-11-14 23:57:13,51,12.17,6.66,18.51,2.07
415,Ixtapa,5,MX,2018-11-14 22:44:00,51,20.71,-105.21,29.0,3.1
416,Clyde River,90,CA,2018-11-14 23:23:00,83,70.47,-68.59,-22.0,6.2
417,Los Llanos de Aridane,20,ES,2018-11-14 23:30:00,72,28.66,-17.92,18.0,2.6
418,Margate,75,AU,2018-11-14 23:00:00,66,-43.03,147.26,12.0,5.7
419,Sao Joao dos Patos,0,BR,2018-11-14 23:57:15,59,-6.5,-43.7,28.16,2.07
420,Aklavik,40,CA,2018-11-14 23:00:00,83,68.22,-135.01,-22.0,2.1
421,Kamwenge,12,UG,2018-11-14 23:57:15,95,0.19,30.45,15.69,1.22
422,Olavarria,0,AR,2018-11-14 23:57:16,71,-36.89,-60.32,17.64,4.92
423,Youhao,92,CN,2018-11-14 23:57:16,89,47.86,128.84,-3.89,1.17
424,Buchanan,20,LR,2018-11-14 23:30:00,94,5.88,-10.05,25.0,3.02
425,Dwarka,20,IN,2018-11-14 23:00:00,93,28.58,77.04,18.0,1.32
426,Sumbe,44,AO,2018-11-14 23:57:17,100,-11.2,13.84,23.91,1.22
427,Karpathos,0,GR,2018-11-14 23:20:00,63,35.51,27.21,17.0,9.8
428,Boende,80,CD,2018-11-14 23:57:18,100,-0.28,20.88,21.89,1.37
429,Vila Velha,40,BR,2018-11-14 23:00:00,78,-3.71,-38.6,27.0,6.2
430,Lompoc,1,US,2018-11-14 23:35:00,16,34.64,-120.46,25.0,5.1
431,Mbandaka,64,CD,2018-11-14 23:57:19,96,0.05,18.26,23.19,1.57
432,Pecos,1,US,2018-11-14 23:15:00,26,31.42,-103.49,14.5,2.1
433,Ponnani,0,IN,2018-11-14 23:57:19,86,10.77,75.93,21.44,1.87
434,Parral,75,CL,2018-11-14 23:00:00,63,-36.14,-71.82,18.0,5.1
435,Balabac,88,PH,2018-11-14 23:57:20,100,7.99,117.06,26.81,3.47
436,Cacimba de Dentro,24,BR,2018-11-14 23:57:20,80,-6.64,-35.79,22.49,4.02
437,Vardo,1,US,2018-11-14 23:40:00,40,39.62,-77.74,5.0,1.52
438,Loukhi,44,RU,2018-11-14 23:57:21,92,66.08,33.04,-1.39,1.02
439,Manturovo,88,RU,2018-11-14 23:57:21,69,58.33,44.76,-3.34,2.87
440,Prado,44,BR,2018-11-14 23:57:22,95,-17.34,-39.22,26.24,6.17
441,Koungheul,92,SN,2018-11-14 23:57:22,50,13.98,-14.8,25.49,2.42
442,New Baltimore,40,US,2018-11-14 23:35:00,73,42.68,-82.74,-1.1,0.52
443,Adrar,0,DZ,2018-11-14 23:00:00,47,27.87,-0.29,16.0,2.6
444,Port Blair,20,IN,2018-11-14 23:57:23,97,11.67,92.75,29.01,4.32
445,Waipawa,56,NZ,2018-11-14 23:57:24,61,-39.94,176.59,22.04,1.02
446,Port-Gentil,75,GA,2018-11-14 23:00:00,94,-0.72,8.78,25.0,2.1
447,Quatre Cocos,75,MU,2018-11-14 23:00:00,88,-20.21,57.76,24.0,4.1
448,La Paz,5,MX,2018-11-14 22:40:00,36,24.15,-110.32,25.0,8.7
449,Namtsy,76,RU,2018-11-14 23:57:25,67,62.72,129.66,-20.34,2.57
450,The Valley,20,AI,2018-11-14 23:00:00,74,18.22,-63.06,27.0,5.7
451,Burgeo,36,CA,2018-11-14 23:57:26,100,47.61,-57.61,1.54,22.37
452,Madingou,92,CG,2018-11-14 23:57:26,99,-4.17,13.56,21.19,1.07
453,Maniitsoq,88,GL,2018-11-14 23:57:26,100,65.42,-52.9,-5.34,2.77
454,Teguldet,92,RU,2018-11-14 23:57:27,74,57.31,88.17,-5.84,6.02
455,Nerja,0,ES,2018-11-14 23:30:00,87,36.75,-3.88,18.0,0.5
456,Marzuq,0,YE,2018-11-14 23:57:27,82,14.4,46.47,3.31,1.07
457,Hobyo,92,SO,2018-11-14 23:57:28,92,5.35,48.53,25.51,3.32
458,Sola,90,FI,2018-11-14 23:20:00,100,62.78,29.36,3.0,2.1
459,Goderich,36,CA,2018-11-14 23:55:10,95,43.74,-81.71,-3.24,3.97
460,Nizwa,0,OM,2018-11-14 23:57:29,64,22.93,57.53,17.44,1.57
461,Tuy Hoa,24,VN,2018-11-14 23:57:29,100,13.08,109.3,24.31,1.52
462,Bull Savanna,76,JM,2018-11-14 23:57:30,85,17.89,-77.59,23.79,0.57
463,Paoua,0,CF,2018-11-14 23:57:30,65,7.24,16.43,19.94,1.22
464,Brynmawr,40,GB,2018-11-14 23:20:00,87,51.8,-3.17,10.0,3.1
465,Biltine,0,TD,2018-11-14 23:57:31,59,14.53,20.93,16.99,1.37
466,Ca Mau,92,VN,2018-11-14 23:55:37,97,9.18,105.15,26.29,4.12
467,Mudon,64,MM,2018-11-14 23:57:31,96,16.26,97.73,24.61,1.42
468,Mumbwa,0,ZM,2018-11-14 23:57:32,33,-14.99,27.06,17.31,4.12
469,Qasigiannguit,0,GL,2018-11-14 22:50:00,71,68.82,-51.19,-14.0,2.1
470,Sao Miguel do Araguaia,0,BR,2018-11-14 23:57:32,85,-13.28,-50.16,25.39,1.27
471,Gornopravdinsk,80,RU,2018-11-14 23:57:33,85,60.06,69.92,-4.32,3.77
472,Lianzhou,92,CN,2018-11-14 23:57:33,98,24.79,112.38,17.99,1.07
473,Vao,76,EE,2018-11-14 23:57:33,99,59.1,26.19,4.06,1.42
474,Miyako,20,JP,2018-11-14 23:00:00,66,33.63,130.94,14.0,1.5
475,Kenai,40,US,2018-11-14 22:56:00,100,60.55,-151.26,3.3,3.1
476,Bandarbeyla,92,SO,2018-11-14 23:57:34,100,9.49,50.81,26.41,4.42
477,Geraldton,75,CA,2018-11-14 23:00:00,61,49.72,-86.95,-9.0,3.1
478,Tamandare,36,BR,2018-11-14 23:57:35,92,-8.28,-70.75,25.39,1.12
479,Cabinda,92,AO,2018-11-14 23:57:35,100,-5.56,12.19,24.49,4.47
480,Ishinomaki,20,JP,2018-11-14 23:00:00,76,38.42,141.3,9.0,1.0
481,Maputo,20,MZ,2018-11-14 23:00:00,77,-25.97,32.57,20.0,1.0
482,Yaan,44,NG,2018-11-14 23:57:36,61,7.38,8.57,27.99,5.67
483,Mnogovershinnyy,48,RU,2018-11-14 23:57:37,94,53.94,139.92,0.49,0.47
484,La Tuque,0,CA,2018-11-14 23:57:37,54,47.44,-72.79,-10.87,3.87
485,Barstow,1,US,2018-11-14 23:53:00,31,31.46,-103.39,13.5,3.1
486,Itaueira,56,BR,2018-11-14 23:57:38,64,-7.6,-43.03,27.51,1.22
487,Hovd,0,NO,2018-11-14 23:20:00,100,63.83,10.7,8.0,7.7
488,Mildura,0,AU,2018-11-14 23:55:49,78,-34.18,142.16,18.44,4.02
489,Sorland,92,NO,2018-11-14 23:57:39,98,67.67,12.69,9.01,14.92
490,Vidim,0,CZ,2018-11-14 23:30:00,93,50.47,14.53,4.0,2.6
491,Ambilobe,0,MG,2018-11-14 23:57:40,86,-13.19,49.05,21.56,1.62
492,Qaqortoq,44,GL,2018-11-14 22:50:00,41,60.72,-46.03,4.0,4.6
493,Bharatpur,0,NP,2018-11-14 23:55:58,73,27.68,84.43,13.26,2.27
494,Ankazoabo,0,MG,2018-11-14 23:57:42,63,-22.29,44.51,20.51,4.57
495,Nelson Bay,20,AU,2018-11-14 23:00:00,73,-32.72,152.14,23.0,8.2
496,Glomfjord,75,NO,2018-11-14 22:50:00,100,66.82,13.94,8.0,1.0
497,Manaus,20,BR,2018-11-14 23:00:00,74,-3.13,-59.98,30.0,1.0
498,Lanzhou,90,CN,2018-11-14 23:00:00,79,36.06,103.82,-6.0,3.0
499,Bukachacha,0,RU,2018-11-14 23:57:44,56,52.99,116.91,-19.19,1.82
500,San Andres,44,PH,2018-11-14 23:57:44,100,13.32,122.68,26.91,8.27
501,Vozhega,92,RU,2018-11-14 23:57:44,96,60.47,40.21,-1.57,3.62
502,Ranau,68,MY,2018-11-14 23:57:45,86,5.95,116.67,22.29,0.07
503,Dolores,0,UY,2018-11-14 23:57:45,56,-33.53,-58.22,20.44,4.37
504,Zeya,64,RU,2018-11-14 23:57:46,83,53.74,127.27,-9.57,1.22
505,Tabou,88,CI,2018-11-14 23:57:46,100,4.42,-7.36,26.94,5.12
506,Rongcheng,48,CN,2018-11-14 23:57:46,99,37.16,122.42,6.79,0.92
507,Macamic,75,CA,2018-11-14 23:00:00,78,48.75,-79.0,-12.0,2.6
508,Okha,36,RU,2018-11-14 23:57:47,98,53.59,142.95,1.99,3.77
509,Hofn,92,IS,2018-11-14 23:57:48,100,64.25,-15.21,4.44,10.72
510,Itarema,20,BR,2018-11-14 23:57:48,77,-2.92,-39.92,25.94,6.92
511,Nola,48,CF,2018-11-14 23:57:48,98,3.52,16.05,20.14,1.17
512,Magalia,5,US,2018-11-14 22:54:00,20,39.81,-121.58,21.1,1.47
513,Ulladulla,90,AU,2018-11-14 23:30:00,93,-35.36,150.48,16.0,7.7
514,Mendoza,0,AR,2018-11-14 23:00:00,14,-32.89,-68.84,26.0,4.6
515,Manzanillo,76,CU,2018-11-14 23:57:50,100,20.34,-77.12,26.81,1.62
516,Vredendal,88,ZA,2018-11-14 23:57:50,93,-31.68,18.49,13.79,1.32
517,Killybegs,92,IE,2018-11-14 23:57:50,94,54.63,-8.45,12.89,6.17
518,Dondo,0,MZ,2018-11-14 23:00:00,78,-19.62,34.74,24.0,3.1
519,Fraserburgh,90,GB,2018-11-14 23:20:00,82,57.69,-2.02,13.0,6.7
520,Saquena,20,PE,2018-11-14 23:57:52,91,-4.67,-73.52,27.54,1.12
521,Antalaha,92,MG,2018-11-14 23:57:52,100,-14.9,50.28,22.16,3.12
522,Wanning,75,AT,2018-11-14 23:20:00,100,48.64,13.53,4.0,2.6
523,Nagato,20,JP,2018-11-14 23:00:00,76,34.35,131.14,13.0,1.47
524,Manggar,68,ID,2018-11-14 23:57:54,93,-2.88,108.27,28.44,2.77
525,Pa Sang,20,TH,2018-11-14 23:00:00,94,18.53,98.94,22.0,1.42
526,Sioux Lookout,75,CA,2018-11-14 23:00:00,73,50.1,-91.92,-3.0,3.1
527,Yakymivka,68,UA,2018-11-14 23:57:55,97,46.7,35.16,1.06,5.07
528,Kushima,20,JP,2018-11-14 23:00:00,81,31.5,131.29,10.0,3.1
529,Rodrigues Alves,20,BR,2018-11-14 23:00:00,94,-7.74,-72.65,27.0,1.5
530,Vilhena,0,BR,2018-11-14 23:00:00,100,-12.74,-60.15,22.0,2.1
